// Waypoint Manager Custom Waypoints File
//
// This file contains an extract of Waypoint Manager custom waypoints.
//-------------------------------------------------------------------
// For Mod KerbinSideRemasteredGAP by Caerfinon
//
//  To add these Waypoints to your game copy this file to /GameData/WaypointManager/PluginData/Customwaypoints/ 
//  Start Kerbal Space Program
//  Then in the WayppointManager GUI go into settings and Import custom waypoints. Select the KSRGAP entry.  
//

WAYPOINT
{
	name = Aracama Airport
	celestialName = Kerbin
	latitude = -2.2195696830749498
	longitude = -88.037017822265597
	navigationId = ee24466b-f1ff-4c37-b03a-23de5bdc5e08
	icon = ContractPacks/KerbinSideRemasteredGAP/Assets/Icons/Airport
	altitude = 1.5631940186722204E-13
	index = 39
	seed = 747
}
WAYPOINT
{
	name = Foldrenview Airport
	celestialName = Kerbin
	latitude = 29.114690780639599
	longitude = -95.633804321289105
	navigationId = 75f57ffc-29e2-4e97-ba23-d8ba4fe296a3
	icon = ContractPacks/KerbinSideRemasteredGAP/Assets/Icons/Airport
	altitude = -0.00023230002261698246
	index = 40
	seed = 384
}
WAYPOINT
{
	name = Laestron Airport
	celestialName = Kerbin
	latitude = 23.947807312011701
	longitude = -39.610973358154297
	navigationId = f0572613-6fc8-49f8-b42b-2194e526bbc2
	icon = ContractPacks/KerbinSideRemasteredGAP/Assets/Icons/Airport
	altitude = 0
	index = 41
	seed = 384
}
WAYPOINT
{
	name = Osealis Airport
	celestialName = Kerbin
	latitude = 6.4098668098449698
	longitude = -62.123771667480497
	navigationId = 9ef826ba-20cd-4193-9ada-de929fd42376
	icon = ContractPacks/KerbinSideRemasteredGAP/Assets/Icons/Airport
	altitude = -3.979039320256561E-13
	index = 42
	seed = 241
}
WAYPOINT
{
	name = Kola Island
	celestialName = Kerbin
	latitude = -4.1596856119999996
	longitude = -72.109352110000003
	navigationId = 472bd452-6f49-497a-879e-5330295f5a75
	icon = ContractPacks/KerbinSideRemasteredGAP/Assets/Icons/Airport
	altitude = 3.5527136788005009E-14
	index = 20
	seed = 241
}
WAYPOINT
{
	name = Jeb's Junkyard
	celestialName = Kerbin
	latitude = 6.9521527289999998
	longitude = -77.938110350000002
	navigationId = 1ba62eba-a819-46b0-9e61-9e7ad6591b31
	icon = ContractPacks/KerbinSideRemasteredGAP/Assets/Icons/Airport
	altitude = 4.5474735088646412E-13
	index = 21
	seed = 241
}
WAYPOINT
{
	name = Cape Kerman
	celestialName = Kerbin
	latitude = 24.906757349999999
	longitude = -83.628990169999994
	navigationId = a12270f5-2a19-4d18-8771-bb793b1eeb22
	icon = ContractPacks/KerbinSideRemasteredGAP/Assets/Icons/Airport
	altitude = -4.2632564145606011E-14
	index = 22
	seed = 241
}
WAYPOINT
{
	name = Sandy Island
	celestialName = Kerbin
	latitude = -8.151759148
	longitude = -42.39810181
	navigationId = a9250437-1218-4697-9ffc-114147881bfa
	icon = ContractPacks/KerbinSideRemasteredGAP/Assets/Icons/Airport
	altitude = 3.1974423109204508E-14
	index = 23
	seed = 241
}
WAYPOINT
{
	name = Kerman Atoll
	celestialName = Kerbin
	latitude = -37.072181700000002
	longitude = -71.003257750000003
	navigationId = 3d1eedf6-b907-4a15-983b-302f71992f36
	icon = ContractPacks/KerbinSideRemasteredGAP/Assets/Icons/Airport
	altitude = 8.5265128291212022E-14
	index = 24
	seed = 384
}
WAYPOINT
{
	name = Kojave Sands
	celestialName = Kerbin
	latitude = 6.0503306390000002
	longitude = -141.97792050000001
	navigationId = 711bf7d5-f880-432b-a3da-d5f89f1cc123
	icon = ContractPacks/KerbinSideRemasteredGAP/Assets/Icons/Airport
	altitude = 2.2737367544323206E-13
	index = 25
	seed = 384
}
WAYPOINT
{
	name = Meeda
	celestialName = Kerbin
	latitude = 37.869182590000001
	longitude = -109.843895
	navigationId = 0f8f5dfe-e6cc-481d-8e94-c3cb700ee845
	icon = ContractPacks/KerbinSideRemasteredGAP/Assets/Icons/Airport
	altitude = 0
	index = 26
	seed = 384
}
WAYPOINT
{
	name = Polar Alpha
	celestialName = Kerbin
	latitude = 72.563240050000005
	longitude = -78.559829710000002
	navigationId = f5477a04-a725-4e6a-8f3f-8876490edc74
	icon = ContractPacks/KerbinSideRemasteredGAP/Assets/Icons/Airport
	altitude = 0
	index = 27
	seed = 241
}
WAYPOINT
{
	name = Baikerbanur // Parallax in use
	celestialName = Kerbin
	latitude = 20.572227478027301
	longitude = -146.53112792968801
	navigationId = d4dc5cb6-fdd6-4ef5-8b53-6f2a7cae094f
	icon = ContractPacks/KerbinSideRemasteredGAP/Assets/Icons/Airport
	altitude = 3.979039320256561E-13
	index = 28
	seed = 241
}
WAYPOINT
{
	name = South Field
	celestialName = Kerbin
	latitude = -47.006515499999999
	longitude = -140.97854609999999
	navigationId = 420001e2-cd08-4590-af41-094ba7b68012
	icon = ContractPacks/KerbinSideRemasteredGAP/Assets/Icons/Airport
	altitude = 1.4210854715202004E-14
	index = 29
	seed = 241
}
WAYPOINT
{
	name = Harvester
	celestialName = Kerbin
	latitude = -56.297054289999998
	longitude = -10.98251915
	navigationId = 04c42cab-1949-4a87-ab45-7aefe0e4acf0
	icon = ContractPacks/KerbinSideRemasteredGAP/Assets/Icons/Airport
	altitude = 0
	index = 30
	seed = 241
}
WAYPOINT
{
	name = Uberdam
	celestialName = Kerbin
	latitude = 38.507534030000002
	longitude = -149.62910460000001
	navigationId = 3258d6fd-2502-4cd8-94c3-b0edcc966c9a
	icon = ContractPacks/KerbinSideRemasteredGAP/Assets/Icons/Airport
	altitude = 3.979039320256561E-13
	index = 31
	seed = 241
}
WAYPOINT
{
	name = Kamberwick
	celestialName = Kerbin
	latitude = 36.181701660000002
	longitude = 10.60191822
	navigationId = dd4f399f-d1f9-414e-ab90-b636d7c4c336
	icon = ContractPacks/KerbinSideRemasteredGAP/Assets/Icons/Airport
	altitude = 4.5474735088646412E-13
	index = 32
	seed = 241
}
WAYPOINT
{
	name = Kermundsen
	celestialName = Kerbin
	latitude = -89.874862669999999
	longitude = -172.39198300000001
	navigationId = dd1e9792-6eb7-4859-8c16-d8173543a4ec
	icon = ContractPacks/KerbinSideRemasteredGAP/Assets/Icons/Airport
	altitude = 0
	index = 33
	seed = 241
}
WAYPOINT
{
	name = South Lake
	celestialName = Kerbin
	latitude = -37.283378599999999
	longitude = 52.562286380000003
	navigationId = 569082ce-5b18-41a1-afdc-c38f27bd6368
	icon = ContractPacks/KerbinSideRemasteredGAP/Assets/Icons/Airport
	altitude = 2.8421709430404007E-14
	index = 34
	seed = 384
}
WAYPOINT
{
	name = Hazard Shallows
	celestialName = Kerbin
	latitude = -14.226844789999999
	longitude = 155.24047849999999
	navigationId = 5b26ac74-30a0-4aec-9f13-18a44e308882
	icon = ContractPacks/KerbinSideRemasteredGAP/Assets/Icons/Airport
	altitude = 4.9737991503207013E-14
	index = 35
	seed = 241
}
WAYPOINT
{
	name = Dununda
	celestialName = Kerbin
	latitude = -39.298156740000003
	longitude = 116.2391739
	navigationId = 934198ee-884b-45b7-bf04-b5f4e4a178f9
	icon = ContractPacks/KerbinSideRemasteredGAP/Assets/Icons/Airport
	altitude = 2.2737367544323206E-13
	index = 36
	seed = 384
}
WAYPOINT
{
	name = Round Range
	celestialName = Kerbin
	latitude = -5.9996585849999997
	longitude = 99.510261540000002
	navigationId = d176e5c3-eafd-4ae4-bdbd-5297e77aaa4e
	icon = ContractPacks/KerbinSideRemasteredGAP/Assets/Icons/Airport
	altitude = 5.0022208597511053E-12
	index = 37
	seed = 384
}
WAYPOINT
{
	name = Nye Island
	celestialName = Kerbin
	latitude = 5.746015549
	longitude = 108.7499619
	navigationId = 0131c28f-1eef-4319-8f88-9ec29ce519c4
	icon = ContractPacks/KerbinSideRemasteredGAP/Assets/Icons/Airport
	altitude = -1.1368683772161603E-13
	index = 38
	seed = 241
}
WAYPOINT
{
	name = Aleutia Helipad
	celestialName = Kerbin
	latitude = -51.782257080078097
	longitude = 171.112228393555
	navigationId = 8dddec27-923e-4250-a248-12548c6d7a6e
	icon = ContractPacks/KerbinSideRemasteredGAP/Assets/Icons/Helipad
	altitude = -3.979039320256561E-13
	index = 43
	seed = 241
}
WAYPOINT
{
	name = Dusty Island Helipad
	celestialName = Kerbin
	latitude = -9.7849407196044904
	longitude = 143.591796875
	navigationId = b75f2c17-5920-4795-848b-a6923223da3b
	icon = ContractPacks/KerbinSideRemasteredGAP/Assets/Icons/Helipad
	altitude = -1.0658141036401503E-14
	index = 44
	seed = 241
}
WAYPOINT
{
	name = Gatun Helipad
	celestialName = Kerbin
	latitude = 47.4779663085938
	longitude = 69.207550048828097
	navigationId = 3e2530d5-fa91-4f53-83ca-96c765cd5c69
	icon = ContractPacks/KerbinSideRemasteredGAP/Assets/Icons/Helipad
	altitude = -3.5527136788005009E-14
	index = 45
	seed = 241
}
WAYPOINT
{
	name = Miraflores Helipad
	celestialName = Kerbin
	latitude = 46.4473686218262
	longitude = 89.366546630859403
	navigationId = f046da7b-2875-4240-8839-55a9b047f272
	icon = ContractPacks/KerbinSideRemasteredGAP/Assets/Icons/Helipad
	altitude = 1.0658141036401503E-14
	index = 46
	seed = 241
}